City,Lat,Lng,Max Temp,Humidity,Cloudiness,Wind Speed,Country,Date
busselton,-33.65,115.33,54.0,93,0,8.88,AU,1595725903
rikitea,-23.12,-134.97,70.48,80,19,19.53,PF,1595725422
qaanaaq,77.48,-69.36,43.47,61,0,0.85,GL,1595725387
taoudenni,22.68,-3.98,96.87,28,0,6.73,ML,1595725971
cape town,-33.93,18.42,59.0,93,75,5.82,ZA,1595725767
starkville,33.45,-88.82,87.8,66,75,4.7,US,1595725971
jamestown,42.1,-79.24,73.4,69,1,5.82,US,1595725864
kruisfontein,-34.0,24.73,54.09,91,0,10.56,ZA,1595725972
cherskiy,68.75,161.3,85.66,26,0,13.78,RU,1595725424
safranbolu,41.25,32.69,63.54,77,0,1.36,TR,1595725973
bilma,18.69,12.92,81.1,56,1,9.95,NE,1595725633
hermanus,-34.42,19.23,55.99,93,92,1.99,ZA,1595725904
port elizabeth,-33.92,25.57,60.8,77,0,17.22,ZA,1595725907
albany,42.6,-73.97,78.01,57,0,4.05,US,1595725379
hithadhoo,-0.6,73.08,82.65,67,100,3.53,MV,1595725387
evensk,61.95,159.23,60.42,69,21,11.14,RU,1595725975
clyde river,70.47,-68.59,51.8,71,1,5.82,CA,1595725975
chernyshevskiy,63.01,112.47,57.96,64,5,10.92,RU,1595725976
bluff,-46.6,168.33,51.24,78,54,19.8,NZ,1595725379
rio grande,-32.03,-52.1,42.01,93,0,13.42,BR,1595725526
high level,58.52,-117.14,73.4,35,75,9.17,CA,1595725977
kavaratti,10.57,72.64,81.43,79,100,16.51,IN,1595725977
nanortalik,60.14,-45.24,43.79,86,86,3.87,GL,1595725977
bourail,-21.57,165.48,76.15,63,65,4.99,NC,1595725977
dikson,73.51,80.55,39.06,93,100,16.62,RU,1595725978
ushuaia,-54.8,-68.3,30.2,92,40,24.16,AR,1595725639
bambous virieux,-20.34,57.76,70.0,56,75,11.41,MU,1595725978
severo-kurilsk,50.68,156.12,53.65,77,100,12.19,RU,1595725979
fairbanks,64.84,-147.72,66.2,59,90,3.36,US,1595725803
provideniya,64.38,-173.3,54.16,65,70,7.58,RU,1595725979
avarua,-21.21,-159.78,75.2,69,100,9.17,CK,1595725384
mahebourg,-20.41,57.7,69.8,56,75,11.41,MU,1595725980
puerto ayora,-0.74,-90.35,66.0,96,99,7.0,EC,1595725981
bethel,41.37,-73.41,80.01,74,1,8.05,US,1595725900
bindura,-17.3,31.33,45.86,92,0,2.17,ZW,1595725981
kapaa,22.08,-159.32,84.0,83,75,16.11,US,1595725981
biak,-0.91,122.88,74.91,87,100,8.23,ID,1595725982
sterling,39.01,-77.43,84.2,70,1,3.91,US,1595725880
khatanga,71.97,102.5,41.32,78,100,12.84,RU,1595725900
gretna,29.91,-90.05,81.0,78,1,4.7,US,1595725982
kavieng,-2.57,150.8,85.77,72,58,14.81,PG,1595725983
mount gambier,-37.83,140.77,46.4,93,0,2.24,AU,1595725826
viedma,-40.81,-63.0,51.01,62,100,10.0,AR,1595725984
straumen,63.87,11.3,48.0,100,12,4.7,NO,1595725984
ingham,42.6,-84.38,81.0,61,1,6.22,US,1595725984
bredasdorp,-34.53,20.04,59.0,87,100,8.05,ZA,1595725985
ossora,59.24,163.07,66.11,55,0,7.49,RU,1595725985
punta arenas,-53.15,-70.92,24.8,85,31,11.41,CL,1595725985
pevek,69.7,170.31,47.34,88,5,1.03,RU,1595725906
tuktoyaktuk,69.45,-133.04,50.0,87,90,5.82,CA,1595725986
praia da vitoria,38.73,-27.07,71.6,88,20,5.84,PT,1595725846
garissa,-0.45,39.64,72.05,73,3,15.32,KE,1595725986
arraial do cabo,-22.97,-42.03,71.55,80,0,20.45,BR,1595725414
college,64.86,-147.8,66.2,52,75,4.7,US,1595725906
mataura,-46.19,168.86,51.13,75,79,5.57,NZ,1595725899
ukiah,39.15,-123.21,95.0,21,1,10.29,US,1595725910
ajdabiya,30.76,20.23,72.14,74,0,5.66,LY,1595725988
kudahuvadhoo,2.67,72.89,82.49,70,100,9.55,MV,1595725988
port-cartier,50.03,-66.87,66.2,88,90,10.29,CA,1595725989
maceio,-9.67,-35.74,73.4,83,75,6.93,BR,1595725903
kodiak,57.79,-152.41,55.4,82,75,8.05,US,1595725815
tasiilaq,65.61,-37.64,44.6,81,100,11.41,GL,1595725990
hami,42.8,93.45,86.25,22,0,13.38,CN,1595725990
williams lake,52.14,-122.14,68.0,40,20,8.05,CA,1595725714
coutances,49.05,-1.43,62.01,93,57,14.99,FR,1595725991
hobart,-42.88,147.33,53.01,70,0,6.93,AU,1595725867
san andres,12.58,-81.7,82.4,78,75,6.93,CO,1595725992
bengkulu,-3.8,102.27,76.75,86,1,6.26,ID,1595725908
luderitz,-26.65,15.16,55.4,82,0,6.93,NA,1595725993
prieska,-29.66,22.75,50.95,47,0,6.38,ZA,1595725993
georgetown,5.41,100.34,80.6,88,20,4.88,MY,1595725421
kulhudhuffushi,6.62,73.07,81.81,75,100,8.52,MV,1595725993
bomi,7.25,-11.53,72.73,92,90,2.71,SL,1595725994
ribeira grande,38.52,-28.7,71.64,86,12,12.19,PT,1595725994
mnogovershinnyy,53.94,139.92,63.79,45,0,6.17,RU,1595725994
berlevag,70.86,29.09,60.8,67,0,5.82,NO,1595725995
visp,46.29,7.88,64.4,68,99,5.82,CH,1595725995
new norfolk,-42.78,147.06,46.0,88,0,2.26,AU,1595725903
juneau,58.3,-134.42,57.99,93,90,11.41,US,1595725996
piedade,-23.71,-47.43,70.0,57,22,5.99,BR,1595725996
saskylakh,71.92,114.08,36.64,88,100,23.09,RU,1595725997
chokurdakh,70.63,147.92,88.32,25,0,17.16,RU,1595725997
san patricio,19.22,-104.7,84.2,79,75,9.17,MX,1595725998
sao paulo de olivenca,-3.38,-68.87,73.96,93,0,1.9,BR,1595725998
blind river,46.18,-82.96,75.2,73,1,12.75,CA,1595725999
tecoanapa,16.52,-98.75,82.38,71,100,1.92,MX,1595725999
aklavik,68.22,-135.01,60.8,67,75,8.05,CA,1595725803
constitucion,-35.33,-72.42,48.13,78,100,3.29,CL,1595725999
esperance,-33.87,121.9,57.2,100,75,12.75,AU,1595725863
carnarvon,-24.87,113.63,57.2,76,0,6.93,AU,1595725816
airai,-8.93,125.41,67.05,59,95,5.39,TL,1595726001
upernavik,72.79,-56.15,44.58,92,100,19.46,GL,1595726001
shevchenkove,49.7,37.17,62.6,63,21,2.24,UA,1595725755
nikolskoye,59.7,30.79,55.99,93,75,2.24,RU,1595726002
dauphin,51.15,-100.05,77.0,50,1,19.46,CA,1595725924
vila franca do campo,37.72,-25.43,68.0,77,20,4.7,PT,1595726002
port alfred,-33.59,26.89,64.62,43,0,12.12,ZA,1595726002
krasnogorsk,55.82,37.32,61.0,76,100,4.47,RU,1595726003
nayoro,44.35,142.46,75.58,62,32,1.9,JP,1595726003
sioux lookout,50.1,-91.92,82.4,65,20,9.17,CA,1595726003
mahe,11.7,75.53,75.2,94,75,1.12,IN,1595726004
talnakh,69.49,88.4,48.2,87,40,29.08,RU,1595726004
vetapalem,15.78,80.32,81.9,74,85,4.76,IN,1595726004
tahta,26.77,31.5,84.2,28,0,6.93,EG,1595726004
emirdag,39.02,31.15,64.83,57,0,1.63,TR,1595726005
whakatane,-37.96,176.99,57.0,64,0,3.0,NZ,1595726005
baykit,61.67,96.37,61.95,61,1,2.3,RU,1595726006
kurtamysh,54.91,64.43,61.14,70,100,5.3,RU,1595726006
petropavlovsk-kamchatskiy,53.05,158.65,71.6,53,100,4.47,RU,1595726006
mecca,21.43,39.83,88.97,35,31,5.73,SA,1595726007
surman,32.76,12.57,78.53,48,0,2.91,LY,1595726007
birao,10.28,22.79,70.86,96,100,4.52,CF,1595726007
tsabong,-26.02,22.4,48.4,52,0,10.76,BW,1595726008
plettenberg bay,-34.05,23.37,57.0,85,4,10.29,ZA,1595726008
peniche,39.36,-9.38,66.0,92,6,13.0,PT,1595726009
brae,60.4,-1.35,53.6,93,100,8.05,GB,1595726009
vao,-22.67,167.48,70.65,82,6,21.54,NC,1595726010
yellowknife,62.46,-114.35,72.0,35,20,9.17,CA,1595726010
presidencia roque saenz pena,-26.79,-60.44,46.4,62,0,5.82,AR,1595726010
hualmay,-11.1,-77.61,59.81,85,10,8.43,PE,1595726010
fukue,32.69,128.84,75.2,100,75,5.82,JP,1595726011
atar,20.52,-13.05,85.73,43,0,9.93,MR,1595725630
port-gentil,-0.72,8.78,74.66,79,0,12.19,GA,1595726011
buraydah,26.33,43.98,89.6,38,20,3.36,SA,1595726012
floro,61.6,5.03,57.2,87,100,6.93,NO,1595726012
castro,-24.79,-50.01,55.49,89,99,2.01,BR,1595725799
margate,51.38,1.39,59.0,99,0,3.0,GB,1595726013
wajir,1.75,40.06,71.38,69,0,13.09,KE,1595726013
komsomolskiy,40.43,71.72,77.0,50,61,4.7,UZ,1595726013
lata,40.16,-8.33,63.0,99,58,8.99,PT,1595726013
ubinskoye,55.31,79.68,58.33,91,100,1.21,RU,1595726014
springbok,-29.66,17.89,48.13,52,0,1.61,ZA,1595726014
dingle,11.0,122.67,84.4,75,4,0.51,PH,1595726014
lorengau,-2.02,147.27,82.96,80,100,16.35,PG,1595726015
harper,4.38,-7.72,74.66,81,34,8.3,LR,1595726015
atuona,-9.8,-139.03,79.52,75,4,21.45,PF,1595725421
chuy,-33.7,-53.46,43.66,79,0,8.57,UY,1595726016
vaini,-21.2,-175.2,75.2,69,40,11.41,TO,1595725909
jaora,23.63,75.13,77.49,85,63,7.23,IN,1595726017
te anau,-45.42,167.72,50.0,74,100,6.02,NZ,1595726017
saint-francois,46.42,3.91,68.0,64,100,3.36,FR,1595725630
cabo san lucas,22.89,-109.91,89.01,69,5,20.8,MX,1595726018
victoria,22.29,114.16,89.01,74,20,13.87,HK,1595725978
coquimbo,-29.95,-71.34,55.4,58,100,8.05,CL,1595726018
savannah bight,16.45,-85.85,84.4,77,0,26.46,HN,1595726019
caravelas,-17.71,-39.25,71.44,88,16,4.79,BR,1595726019
bandarbeyla,9.49,50.81,78.01,66,97,24.65,SO,1595726019
avera,33.19,-82.53,78.8,88,1,4.7,US,1595726019
gainesville,29.65,-82.32,84.2,70,1,5.82,US,1595726020
isla vista,34.41,-119.86,77.0,72,1,10.29,US,1595726021
kahului,20.89,-156.47,89.6,46,40,18.34,US,1595726021
dwarka,22.24,68.97,83.84,80,100,5.39,IN,1595726021
sampit,-2.53,112.95,80.47,75,30,5.21,ID,1595726022
makarov,48.63,142.8,59.74,79,85,8.86,RU,1595726022
sur,22.57,59.53,86.92,61,97,8.05,OM,1595725633
ruse,43.86,25.97,71.01,62,54,3.71,BG,1595726022
iquitos,-3.75,-73.25,78.8,88,40,4.7,PE,1595726023
tiksi,71.69,128.87,39.45,96,100,15.82,RU,1595726023
barrow,71.29,-156.79,41.0,80,90,6.93,US,1595725901
henties bay,-22.12,14.28,73.0,24,0,3.0,NA,1595726024
sisimiut,66.94,-53.67,45.7,93,100,11.95,GL,1595726024
nichinan,31.6,131.37,75.2,94,75,3.36,JP,1595726024
jizan,17.33,42.67,89.6,66,26,10.29,SA,1595726025
la palma,33.85,-118.05,82.0,50,1,5.82,US,1595726025
hilo,19.73,-155.09,86.0,62,75,11.41,US,1595725893
beloha,-25.17,45.05,53.85,85,0,5.23,MG,1595726026
zinder,13.81,8.99,85.37,54,0,12.88,NE,1595725902
kusti,13.16,32.66,79.74,69,99,14.25,SD,1595726026
goedereede,51.82,3.98,64.0,95,100,1.01,NL,1595726027
narsaq,60.92,-46.05,46.4,93,100,3.13,GL,1595726027
saldanha,-33.01,17.94,57.2,87,89,3.36,ZA,1595726027
tura,25.52,90.22,78.64,87,100,3.09,IN,1595726027
hoquiam,46.98,-123.89,70.0,68,1,10.29,US,1595726028
portland,45.52,-122.68,82.0,36,1,16.11,US,1595725879
butaritari,3.07,172.79,83.55,75,0,14.92,KI,1595726028
sinnamary,5.38,-52.95,78.55,86,79,8.55,GF,1595726028
laguna,38.42,-121.42,93.99,18,1,8.05,US,1595726029
hawkesbury,45.6,-74.62,77.0,65,75,4.7,CA,1595726029
port blair,11.67,92.75,80.6,88,40,1.12,IN,1595726030
camana,-16.62,-72.71,58.98,79,44,4.97,PE,1595726030
paredon,16.03,-93.87,82.27,73,100,3.0,MX,1595726030
saint george,37.1,-113.58,98.6,13,1,13.87,US,1595726004
acarau,-2.89,-40.12,77.65,79,99,12.57,BR,1595726031
muscle shoals,34.74,-87.67,84.2,66,1,5.32,US,1595726031
belaya gora,68.53,146.42,92.21,23,71,10.67,RU,1595726032
kirakira,-10.45,161.92,83.07,76,54,15.61,SB,1595726032
hasaki,35.73,140.83,82.4,88,75,6.93,JP,1595726032
lagoa,39.05,-27.98,71.38,88,0,16.73,PT,1595726033
torbay,47.67,-52.73,60.01,93,75,8.05,CA,1595726033
ponta do sol,32.67,-17.1,70.0,68,20,21.92,PT,1595725630
mapastepec,15.43,-92.9,79.83,77,100,1.34,MX,1595726034
yeppoon,-23.13,150.73,66.2,77,0,5.82,AU,1595726035
karimganj,24.87,92.35,80.1,88,88,1.36,IN,1595725812
itarema,-2.92,-39.92,78.12,78,99,14.23,BR,1595726035
east london,-33.02,27.91,71.87,28,0,13.71,ZA,1595726035
katsuura,35.13,140.3,84.2,83,75,6.93,JP,1595726036
taiyuan,37.87,112.56,68.0,82,29,2.24,CN,1595725876
kaitangata,-46.28,169.85,54.0,55,93,8.99,NZ,1595726036
stokmarknes,68.56,14.91,54.0,91,61,4.0,NO,1595726037
togur,58.36,82.83,58.19,71,4,5.32,RU,1595726037
omboue,-1.57,9.26,72.34,80,82,5.57,GA,1595726037
bathsheba,13.22,-59.52,82.4,78,40,13.87,BB,1595725631
olafsvik,64.89,-23.71,47.7,77,100,30.24,IS,1595726038
iqaluit,63.75,-68.51,46.4,81,75,6.93,CA,1595726038
genhe,50.78,121.52,80.42,51,97,4.29,CN,1595726039
lazaro cardenas,17.96,-102.2,82.92,75,30,4.54,MX,1595726039
mana,5.66,-53.78,77.94,88,95,7.74,GF,1595726039
vostok,46.49,135.88,69.35,67,81,1.77,RU,1595726040
mombetsu,44.35,143.35,60.8,87,75,8.05,JP,1595726040
oga,46.46,10.35,57.0,100,100,2.24,IT,1595726040
lethem,3.38,-59.8,76.86,83,2,3.27,GY,1595726041
najran,17.49,44.13,86.0,30,100,3.36,SA,1595725632
pisco,-13.7,-76.22,62.6,82,90,5.82,PE,1595726042
wolow,51.34,16.64,64.0,82,86,4.7,PL,1595726042
ashland,40.82,-82.27,78.8,61,1,5.57,US,1595726042
dunedin,-45.87,170.5,54.0,61,100,11.99,NZ,1595725891
padang,-0.95,100.35,79.23,77,78,3.24,ID,1595726043
katobu,-4.94,122.53,81.01,68,87,5.12,ID,1595726043
tuatapere,-46.13,167.68,52.59,72,45,6.24,NZ,1595726043
kalmunai,7.42,81.82,79.79,76,100,2.59,LK,1595726044
sao lourenco do sul,-31.37,-51.98,42.01,93,0,10.49,BR,1595726044
sicuani,-14.27,-71.23,48.0,53,98,5.82,PE,1595726045
riberalta,-10.98,-66.1,71.37,65,100,5.84,BO,1595726046
sault sainte marie,46.52,-84.33,82.4,69,1,11.41,CA,1595726035
ancud,-41.87,-73.82,48.99,100,90,6.93,CL,1595726047
san rafael,-34.62,-68.33,49.75,44,47,8.81,AR,1595725959
bafra,41.57,35.91,68.0,82,0,3.36,TR,1595726047
ust-kuyga,70.02,135.6,67.51,72,100,8.72,RU,1595726048
knin,44.04,16.2,70.0,54,9,3.0,HR,1595726048
cidreira,-30.18,-50.21,51.44,69,29,12.24,BR,1595726048
darbhanga,26.17,85.9,84.34,72,82,3.83,IN,1595726049
taltal,-25.4,-70.48,59.11,57,93,4.88,CL,1595726049
surt,31.21,16.59,75.02,78,0,2.33,LY,1595726050
mandalgovi,45.76,106.27,63.5,70,63,20.49,MN,1595726050
fare,-16.7,-151.02,78.53,77,18,14.61,PF,1595726050
gushikawa,26.35,127.87,82.4,88,40,8.05,JP,1595726050
sao joao da barra,-21.64,-41.05,71.58,87,0,13.53,BR,1595726051
sulangan,11.14,123.72,84.38,71,0,5.28,PH,1595726051
paamiut,61.99,-49.67,45.81,87,12,5.3,GL,1595726052
zhuhai,22.28,113.57,91.99,75,40,6.93,CN,1595726052
nagato,34.38,131.2,77.0,94,75,14.99,JP,1595726052
palmer,42.16,-72.33,82.4,54,20,3.36,US,1595726053
zheleznodorozhnyy,55.75,38.0,61.0,87,100,4.47,RU,1595726053
bagan,54.1,77.66,62.11,84,32,3.13,RU,1595726053
ketchikan,55.34,-131.65,57.2,100,90,11.41,US,1595725950
almazar,40.32,69.01,75.2,60,40,2.24,UZ,1595726054
shira,54.49,89.95,65.53,68,10,4.43,RU,1595726055
rocha,-34.48,-54.33,41.02,79,0,6.87,UY,1595726055
shizunai,42.33,142.37,67.05,77,100,4.54,JP,1595726055
tuban,-6.9,112.06,76.19,73,100,9.04,ID,1595726056
leningradskiy,69.38,178.42,51.71,74,42,8.61,RU,1595726056
touros,-5.2,-35.46,73.4,88,20,4.7,BR,1595725909
tecpan,14.76,-90.99,68.0,82,40,9.17,GT,1595726056
vrede,-27.43,29.17,35.8,80,0,4.09,ZA,1595726057
san nicolas,18.17,120.6,84.2,79,75,5.82,PH,1595726057
muncar,-8.43,114.33,76.35,74,97,4.7,ID,1595726057
san cristobal,7.77,-72.22,65.97,91,9,2.24,VE,1595725783
putina,-15.47,-69.43,40.77,78,34,10.98,PE,1595726058
beni suef,29.07,31.1,76.33,40,0,8.7,EG,1595726058
anchorage,61.22,-149.9,63.0,59,75,4.7,US,1595725788
mahajanga,-15.72,46.32,69.04,59,0,16.13,MG,1595726059
khani,41.96,42.96,75.2,88,75,4.7,GE,1595726060
panzhihua,26.59,101.71,69.01,86,100,2.24,CN,1595726060
marion,39.77,-86.16,82.0,61,1,5.82,US,1595725888
lima,-12.04,-77.03,60.8,77,90,6.93,PE,1595725841
jutai,-5.18,-68.9,73.49,96,67,3.4,BR,1595726061
flagstaff,35.2,-111.65,73.99,40,90,3.36,US,1595725779
sabang,5.89,95.32,81.68,76,98,9.86,ID,1595726062
jalu,29.03,21.55,78.87,37,0,8.59,LY,1595726062
kindu,-2.95,25.95,70.54,53,0,2.17,CD,1595726062
yulara,-25.24,130.99,57.2,54,0,9.17,AU,1595726063
mehamn,71.04,27.85,60.8,67,0,5.82,NO,1595726063
bavaniste,44.82,20.88,66.2,93,100,5.82,RS,1595726063
linxi,39.7,118.43,81.37,49,100,10.31,CN,1595726063
saint-philippe,-21.36,55.77,68.0,63,20,5.82,RE,1595726064
gat,31.61,34.76,77.0,62,0,2.08,IL,1595726064
zhigansk,66.77,123.37,58.98,71,100,22.39,RU,1595726064
buala,-8.14,159.59,80.58,82,100,11.21,SB,1595726065
lamu,-2.27,40.9,76.59,81,0,17.49,KE,1595726065
haines junction,60.75,-137.51,61.52,45,29,13.82,CA,1595726065
cabedelo,-6.98,-34.83,73.4,100,75,3.36,BR,1595726066
pacific grove,36.62,-121.92,69.01,72,1,11.41,US,1595726025
lukovetskiy,64.3,41.92,53.6,100,20,2.24,RU,1595726068
lebu,-37.62,-73.65,52.43,93,100,21.0,CL,1595726069
mayo,38.89,-76.51,82.4,74,1,5.82,US,1595726070
juazeirinho,-6.82,-38.05,75.49,62,75,13.27,BR,1595726070
novaya ladoga,60.1,32.3,55.99,99,18,5.66,RU,1595726071
katubao,5.89,124.83,83.97,68,98,2.26,PH,1595726071
santander jimenez,24.22,-98.47,79.18,80,100,10.11,MX,1595726072
baijiantan,45.63,85.18,83.84,34,0,1.92,CN,1595726072
herat,34.5,62.0,72.81,24,0,10.38,AF,1595726073
teguise,29.06,-13.56,73.4,73,75,20.8,ES,1595726073
maiduguri,11.85,13.16,80.83,67,77,9.44,NG,1595726074
mwingi,-0.93,38.06,61.57,81,78,6.6,KE,1595726074
la ronge,55.1,-105.28,62.6,82,75,5.82,CA,1595726074
isangel,-19.55,169.27,77.0,78,40,6.93,VU,1595726074
concarneau,47.88,-3.92,60.8,93,90,9.17,FR,1595726075
sorland,67.67,12.69,53.47,88,100,10.25,NO,1595726075
pyatovskiy,54.69,36.06,51.8,93,47,2.24,RU,1595726075
thunder bay,48.4,-89.32,80.6,74,75,12.75,CA,1595726076
tilichiki,60.47,166.1,70.5,52,0,5.17,RU,1595726076
sartell,45.62,-94.21,82.99,78,20,6.93,US,1595726076
broken hill,-31.95,141.43,51.8,71,0,12.75,AU,1595726076
oeiras do para,-2.0,-49.85,78.64,65,58,1.66,BR,1595726077
monrovia,6.3,-10.8,77.0,94,75,9.04,LR,1595725945
santa maria,-29.68,-53.81,51.8,66,0,5.82,BR,1595725630
karratha,-20.74,116.85,69.28,29,100,20.45,AU,1595726077
kroya,-7.63,109.25,75.65,74,100,8.86,ID,1595726078
husavik,66.04,-17.34,46.4,87,90,9.17,IS,1595726078
havelock,34.88,-76.9,82.99,74,40,4.7,US,1595726078
rockhampton,-23.38,150.5,71.6,64,0,6.93,AU,1595726079
jacareacanga,-6.22,-57.75,77.07,56,8,1.41,BR,1595726079
pangkalanbuun,-2.68,111.62,80.28,74,41,5.1,ID,1595726079
arvin,35.21,-118.83,98.01,38,0,5.99,US,1595726079
san quintin,30.48,-115.95,70.05,70,0,11.56,MX,1595726080
aquiraz,-3.9,-38.39,78.8,78,64,4.7,BR,1595726080
boueni,-12.9,45.08,75.2,69,90,19.46,YT,1595726080
westport,41.14,-73.36,80.6,78,1,8.05,US,1595725866
kamenka,51.32,42.77,54.0,74,0,1.01,RU,1595726081
pachino,36.72,15.09,73.99,63,0,4.7,IT,1595726082
sistranda,63.73,8.83,46.4,93,0,4.7,NO,1595726082
velikiy ustyug,60.76,46.31,55.47,94,100,3.65,RU,1595726083
chicama,-7.84,-79.15,61.52,84,97,5.37,PE,1595726083
maridi,4.92,29.47,65.26,97,80,4.25,SS,1595726084
pemangkat,1.17,108.97,78.73,86,65,8.5,ID,1595726084
namibe,-15.2,12.15,66.88,82,23,7.23,AO,1595726084
eyl,7.98,49.82,78.69,63,52,24.74,SO,1595726085
kapoeta,4.77,33.59,72.66,83,100,1.95,SS,1595726085
taksimo,56.34,114.88,71.49,56,17,2.68,RU,1595726086
boda,4.32,17.47,69.96,95,100,2.44,CF,1595726086
kodinsk,58.69,99.18,56.48,79,100,3.2,RU,1595726086
tocopilla,-22.09,-70.2,58.68,62,0,1.1,CL,1595726087
araceli,10.55,119.99,83.8,69,3,3.67,PH,1595726087
aitape,-3.14,142.35,86.56,64,100,2.62,PG,1595726087
ha noi,21.02,105.84,86.0,74,75,6.93,VN,1595726088
kolyvan,55.31,82.74,57.2,100,40,3.76,RU,1595726088
crateus,-5.18,-40.68,74.1,50,70,4.85,BR,1595725790
kuching,1.55,110.33,78.8,94,40,2.62,MY,1595726089
flin flon,54.77,-101.86,67.17,85,55,10.22,CA,1595726089
elko,41.0,-115.5,88.0,10,69,10.0,US,1595726090
saint-augustin,51.23,-58.65,60.58,90,93,0.94,CA,1595726090
amapa,1.0,-52.0,71.74,96,0,0.98,BR,1595726090
longyearbyen,78.22,15.64,66.2,63,5,10.29,SJ,1595726091
rong kwang,18.34,100.32,82.4,78,20,2.24,TH,1595726092
kajaani,64.23,27.73,55.4,93,40,5.82,FI,1595726092
ca mau,9.18,105.15,83.88,74,80,2.86,VN,1595725897
poplar bluff,36.76,-90.39,86.0,70,20,3.36,US,1595726082
umm lajj,25.02,37.27,86.63,64,6,11.25,SA,1595726093
washougal,45.58,-122.35,82.4,34,1,4.7,US,1595726093
guerrero negro,27.98,-114.06,71.08,69,0,18.86,MX,1595726094
fort abbas,29.19,72.85,92.16,52,3,7.29,PK,1595726094
geraldton,-28.77,114.6,57.2,87,0,10.29,AU,1595726095
ilo,-17.64,-71.34,58.78,78,14,4.34,PE,1595726095
norman wells,65.28,-126.83,75.2,44,75,5.82,CA,1595726096
san jose,37.34,-121.89,84.0,47,20,13.87,US,1595726049
maniitsoq,65.42,-52.9,46.15,90,100,9.89,GL,1595726097
faya,18.39,42.45,73.4,60,99,3.11,SA,1595725630
altamira,-3.2,-52.21,77.72,67,85,1.28,BR,1595726097
barcelos,41.54,-8.62,66.0,100,75,3.36,PT,1595726098
genoa,44.41,8.96,71.6,68,0,5.82,IT,1595726099
bulaevo,54.91,70.44,54.45,86,3,8.52,KZ,1595726100
bemidji,47.47,-94.88,82.4,69,1,4.7,US,1595726101
zhangjiakou,40.81,114.88,71.82,57,42,9.28,CN,1595726101
hofn,64.25,-15.21,50.32,85,100,14.25,IS,1595726102
dongsheng,39.82,109.98,68.99,68,41,11.32,CN,1595726103
tatarskaya pishlya,54.06,44.9,52.68,82,87,4.59,RU,1595726103
nuuk,64.18,-51.72,46.4,93,100,5.82,GL,1595726103
lakeside,30.13,-81.77,82.99,74,40,6.93,US,1595726105
port shepstone,-30.74,30.45,60.66,35,0,7.11,ZA,1595725992
balakhta,55.38,91.6,61.38,90,80,5.37,RU,1595726106
arlit,18.74,7.39,95.14,27,53,11.97,NE,1595725630
villa del rosario,7.83,-72.47,73.27,80,64,3.11,CO,1595726107
la paz,-16.5,-68.15,39.2,66,75,8.05,BO,1595726006
lehututu,-23.97,21.87,45.88,58,0,7.81,BW,1595726108
banff,51.18,-115.57,64.0,59,0,8.01,CA,1595726108
horsham,51.06,-0.33,57.99,100,3,6.93,GB,1595726108
stamford,41.05,-73.54,81.0,69,40,4.7,US,1595726104
balkanabat,39.51,54.37,86.95,36,0,3.42,TM,1595726110
mangochi,-14.48,35.26,64.9,67,100,7.49,MW,1595726110
along,28.17,94.77,76.68,88,100,0.92,IN,1595726110
ihosy,-22.4,46.12,49.95,92,35,11.34,MG,1595726112
tuensang,26.28,94.83,75.29,82,100,1.01,IN,1595726112
ximei,24.96,118.38,86.0,84,20,4.47,CN,1595726113
lasa,46.62,10.7,57.0,87,5,2.1,IT,1595726114
panguna,-6.32,155.48,83.8,57,100,3.2,PG,1595726114
marsh harbour,26.54,-77.06,81.23,74,100,17.98,BS,1595726115
cachoeira do sul,-30.04,-52.89,45.41,84,0,4.61,BR,1595726116
yima,34.74,111.88,70.27,80,98,4.03,CN,1595726116
muzhi,65.37,64.67,57.69,78,74,6.04,RU,1595726116
beisfjord,68.38,17.6,59.0,67,99,14.99,NO,1595726117
north bend,43.41,-124.22,75.99,77,1,23.04,US,1595726117
bonavista,48.65,-53.11,60.93,83,79,16.31,CA,1595726117
marawi,8.0,124.29,82.99,77,92,3.0,PH,1595725632
hobyo,5.35,48.53,76.87,76,94,20.4,SO,1595726118
liwale,-9.77,37.93,64.09,80,55,5.01,TZ,1595726118
edd,13.93,41.69,86.94,66,100,15.59,ER,1595726118
ilulissat,69.22,-51.1,44.6,93,100,11.41,GL,1595726119
ostrovnoy,68.05,39.51,57.27,78,43,2.17,RU,1595726119
hambantota,6.12,81.12,77.0,100,90,4.7,LK,1595726119
klyuchi,52.27,79.17,58.33,84,100,13.33,RU,1595726120
loralai,30.37,68.6,76.48,59,0,2.91,PK,1595726120
carbondale,37.73,-89.22,82.99,78,1,4.7,US,1595726121
vestmannaeyjar,63.44,-20.27,51.85,73,100,5.61,IS,1595726121
kushmurun,52.45,64.63,62.46,75,100,3.96,KZ,1595726122
thompson,55.74,-97.86,78.8,54,75,2.24,CA,1595725896
lahaina,20.88,-156.68,89.6,46,40,18.34,US,1595725905
amahai,-3.33,128.92,77.74,86,100,9.66,ID,1595726123
mackay,-21.15,149.2,78.01,77,0,5.82,AU,1595726123
kismayo,-0.36,42.55,77.09,80,10,19.53,SO,1595726124
vestmanna,62.16,-7.17,51.8,81,100,20.8,FO,1595726124
ichon,37.28,127.44,80.6,69,75,2.24,KR,1595726124
dali,25.7,100.18,67.95,79,76,3.65,CN,1595726124
codrington,-38.27,141.97,49.71,75,0,3.02,AU,1595725632
bialystok,53.13,23.15,60.01,76,99,3.94,PL,1595726127
paragominas,-2.97,-47.48,74.84,68,0,3.62,BR,1595726127
ust-maya,60.42,134.53,68.85,47,100,8.79,RU,1595726127
khorosheve,49.85,36.22,60.8,67,38,2.24,UA,1595726128
boulder,40.08,-105.35,77.0,49,40,6.04,US,1595726025
alexandria,31.22,29.96,77.0,78,0,6.93,EG,1595726128
mar del plata,-38.0,-57.56,46.0,87,100,13.87,AR,1595726128
thohoyandou,-22.95,30.48,48.74,75,0,3.04,ZA,1595726129
pella,59.78,30.82,55.99,93,75,2.24,RU,1595726129
saint anthony,45.02,-93.22,82.0,83,75,9.17,US,1595726130
neiafu,-18.65,-173.98,78.8,69,40,9.17,TO,1595726130
rawson,-43.3,-65.1,50.2,63,0,20.89,AR,1595725852
oyonnax,46.26,5.66,68.0,68,20,1.12,FR,1595726130
coahuayana,18.73,-103.68,71.6,94,90,17.22,MX,1595726131
bambanglipuro,-7.95,110.28,77.61,71,100,12.3,ID,1595726131
leh,34.17,77.58,61.34,42,0,3.96,IN,1595726132
auki,-8.77,160.7,79.23,83,100,4.79,SB,1595726132
evanston,42.04,-87.69,87.01,64,0,1.99,US,1595726132
bousse,12.66,-1.89,78.8,83,20,5.82,BF,1595726133
manzhouli,49.6,117.43,73.94,73,100,11.86,CN,1595726133
lodeynoye pole,60.73,33.55,51.69,97,43,4.54,RU,1595726133
salalah,17.02,54.09,78.8,88,40,3.36,OM,1595725416
ladnun,27.65,74.38,86.99,60,94,7.07,IN,1595726134
sala,34.04,-6.82,73.99,83,40,5.82,MA,1595725981
olinda,-8.01,-34.86,75.2,83,75,10.29,BR,1595726136
lasem,-6.69,111.45,76.3,69,100,6.87,ID,1595726136
muros,42.78,-9.06,66.99,91,38,1.01,ES,1595726136
quang ngai,15.12,108.8,85.96,64,33,4.34,VN,1595726048
bam,29.11,58.36,85.12,15,0,10.63,IR,1595726137
praya,14.92,-23.51,78.8,88,90,6.93,CV,1595726137
lowestoft,52.48,1.75,55.99,97,0,12.66,GB,1595726138
palampur,32.12,76.53,71.89,72,66,1.05,IN,1595726138
flinders,-34.58,150.86,60.01,95,100,1.01,AU,1595726138
bastia,42.67,9.33,73.99,77,0,3.36,FR,1595726138
dashitou,43.31,128.51,65.52,71,99,9.93,CN,1595726139
owando,-0.48,15.9,71.69,89,100,2.73,CG,1595726140
ahuimanu,21.44,-157.84,87.8,69,90,12.75,US,1595726140
yar-sale,66.83,70.83,54.88,82,2,11.14,RU,1595726140
fort smith,35.39,-94.4,89.6,52,1,6.93,US,1595726096
puerto suarez,-18.95,-57.8,57.2,67,87,3.65,BO,1595726141
hervey bay,-25.3,152.85,73.0,76,8,7.0,AU,1595726141
necochea,-38.55,-58.74,46.0,78,77,11.01,AR,1595726141
nhulunbuy,-12.23,136.77,82.4,58,40,19.46,AU,1595726142
blackwater,-23.58,148.88,67.91,57,73,8.08,AU,1595726142
miguel pereira,-22.45,-43.47,77.0,69,0,6.93,BR,1595726142
asau,46.43,26.4,61.0,89,99,2.44,RO,1595726143
yurimaguas,-5.9,-76.08,73.83,92,91,0.98,PE,1595726143
mugango,-1.68,33.7,68.0,52,5,6.22,TZ,1595726143
chase,50.82,-119.69,75.99,43,4,0.45,CA,1595726144
faanui,-16.48,-151.75,78.3,79,61,15.7,PF,1595726144
svetlogorsk,52.63,29.73,59.45,97,55,5.1,BY,1595726144
aripuana,-9.17,-60.63,82.67,43,82,1.95,BR,1595726145
murgab,37.5,61.97,77.0,44,0,4.7,TM,1595726145
corowa,-36.03,146.38,55.0,80,100,8.57,AU,1595726145
half moon bay,37.46,-122.43,77.0,49,20,10.29,US,1595726146
catia la mar,10.6,-67.03,70.0,69,100,2.24,VE,1595726146
sovetskaya gavan,48.97,140.29,60.57,83,99,3.56,RU,1595726146
bilibino,68.05,166.44,81.7,33,6,9.44,RU,1595726146
igrim,63.19,64.42,57.33,80,98,4.59,RU,1595726147
galesong,-5.32,119.37,77.0,83,20,1.12,ID,1595726147
ailigandi,9.23,-78.02,79.34,76,10,0.81,PA,1595726148
nemuro,43.32,145.57,60.8,87,75,2.24,JP,1595726148
hovd,48.01,91.64,66.79,42,7,1.86,MN,1595726149
linxia,35.6,103.21,66.85,56,0,1.32,CN,1595726149
moss vale,-34.55,150.38,60.01,100,90,6.93,AU,1595726149
nuevo laredo,27.48,-99.52,86.0,58,75,11.41,MX,1595726149
killybegs,54.63,-8.45,54.0,93,100,5.99,IE,1595726150
nuevo ideal,24.89,-105.07,70.9,65,100,5.99,MX,1595726150
aykhal,66.0,111.5,41.0,93,90,8.95,RU,1595726150
comodoro rivadavia,-45.87,-67.5,37.4,86,40,9.17,AR,1595726151
kloulklubed,7.04,134.26,80.6,83,75,6.93,PW,1595726151
mangrol,21.12,70.12,82.24,79,100,4.03,IN,1595725926
monte alegre de sergipe,-10.03,-37.56,65.55,95,77,7.09,BR,1595726151
balkhash,46.84,74.98,68.0,64,0,11.18,KZ,1595726152
saint-louis,16.33,-15.0,84.2,54,88,2.24,SN,1595725637
lavrentiya,65.58,-171.0,51.55,68,100,6.73,RU,1595726152
kidal,18.44,1.41,87.69,44,3,12.57,ML,1595725631
sevierville,35.87,-83.56,77.0,83,1,3.36,US,1595725932
vitim,59.45,112.56,69.42,47,50,3.09,RU,1595726154
pelym,61.01,62.0,56.17,68,1,3.8,RU,1595726154
bedele,8.46,36.35,56.23,100,100,0.69,ET,1595726154
quisqueya,18.56,-69.41,80.6,78,40,6.93,DO,1595726155
bhadrachalam,17.67,80.88,77.74,90,0,0.74,IN,1595726155
betare oya,5.6,14.08,67.08,96,100,2.55,CM,1595725868
batemans bay,-35.72,150.18,54.0,97,100,3.0,AU,1595726156
polyarnyy,69.2,33.45,46.4,93,0,4.47,RU,1595726156
west plains,36.73,-91.85,87.8,58,1,6.93,US,1595725988
tucano,-10.96,-38.79,63.91,94,0,4.34,BR,1595726157
ucluelet,48.93,-125.55,66.2,55,5,12.75,CA,1595726107
falam,22.92,93.68,63.88,100,99,2.62,MM,1595726157
visnes,59.36,5.22,61.0,93,100,12.75,NO,1595726158
sao filipe,14.9,-24.5,78.57,89,99,3.6,CV,1595726158
ongandjera,-17.88,15.07,56.32,38,0,9.71,NA,1595726158
ures,29.43,-110.4,95.0,44,30,4.0,MX,1595726158
syracuse,37.09,15.28,78.01,78,0,2.24,IT,1595726159
suntar,62.14,117.63,64.96,59,54,10.42,RU,1595726159
saint-georges,12.06,-61.75,82.4,83,20,11.41,GD,1595726159
rhyl,53.32,-3.49,60.01,93,0,7.0,GB,1595726160
deputatskiy,69.3,139.9,80.85,28,0,15.97,RU,1595726160
uribia,11.71,-72.27,83.07,66,88,15.79,CO,1595726160
zyryanka,65.75,150.85,88.61,30,0,15.97,RU,1595726161
makakilo city,21.35,-158.09,89.6,52,20,9.17,US,1595726161
inongo,-1.95,18.27,69.66,75,96,2.21,CD,1595726161
rassvet,46.83,40.75,74.46,29,64,14.07,RU,1595726162
manaus,-3.1,-60.02,84.2,74,20,4.7,BR,1595726063
marquette,46.53,-87.63,82.4,74,75,11.41,US,1595726163
sahuaripa,29.05,-109.23,93.11,43,32,6.22,MX,1595726163
okhotsk,59.38,143.3,62.37,62,0,13.04,RU,1595726163
icod de los vinos,28.37,-16.71,73.0,84,38,1.99,ES,1595726163
christchurch,-43.53,172.63,55.4,54,55,2.24,NZ,1595726132
honningsvag,70.98,25.97,60.8,67,0,5.82,NO,1595726164
garoua,9.3,13.4,73.96,92,61,4.92,CM,1595726165
trairi,-3.28,-39.27,78.35,77,91,11.52,BR,1595726165
fortuna,40.6,-124.16,62.01,72,20,14.99,US,1595726165
torrington,41.8,-73.12,77.0,82,77,1.81,US,1595726165
beira,-19.84,34.84,68.0,77,20,9.17,MZ,1595726167
banjarmasin,-3.32,114.59,80.6,83,0,5.82,ID,1595726094
mendi,-6.18,143.65,66.97,76,100,3.27,PG,1595726167
bubaque,11.28,-15.83,79.63,84,100,14.99,GW,1595726168
alofi,-19.06,-169.92,77.0,69,99,17.22,NU,1595726168
ponca city,36.71,-97.09,89.6,52,1,11.41,US,1595726131
dzhebariki-khaya,62.22,135.8,77.72,32,99,11.34,RU,1595726168
hoima,1.44,31.34,62.85,95,43,1.92,UG,1595726169
charters towers,-20.1,146.27,72.34,50,0,3.04,AU,1595726169
gimli,50.63,-96.99,82.99,99,4,6.51,CA,1595726169
josanicka banja,43.39,20.75,64.4,100,40,1.12,RS,1595726170
colonial heights,37.27,-77.41,80.6,88,1,3.76,US,1595726025
port lincoln,-34.73,135.87,54.64,73,100,8.93,AU,1595725893
synya,65.37,58.04,57.61,76,10,2.01,RU,1595726171
banda aceh,5.56,95.32,80.29,77,49,6.76,ID,1595726171
digby,44.62,-65.77,66.0,88,96,8.99,CA,1595726171
lompoc,34.64,-120.46,66.99,68,0,12.75,US,1595725919
olenino,56.21,33.49,55.27,98,17,5.93,RU,1595726172
mizan teferi,6.98,35.58,61.11,93,100,0.2,ET,1595726172
sao felix do xingu,-6.64,-51.99,73.33,52,0,1.48,BR,1595726172
broome,42.25,-75.83,75.99,69,1,6.93,US,1595726084
guarapari,-20.67,-40.5,68.0,94,40,2.24,BR,1595726173
camacha,33.08,-16.33,68.0,77,40,12.75,PT,1595726173
sembakung,3.82,117.25,82.11,77,63,2.71,ID,1595726174
quelimane,-17.88,36.89,62.65,94,7,4.85,MZ,1595726174
kropachevo,55.01,57.99,54.97,99,100,2.44,RU,1595726174
rundu,-17.93,19.77,49.86,53,0,5.7,NA,1595726175
mayor pablo lagerenza,-19.93,-60.77,53.24,54,90,2.68,PY,1595726175
abha,18.22,42.51,73.4,60,97,3.04,SA,1595725631
burdur,37.72,30.29,69.8,49,0,4.7,TR,1595726176
mount darwin,-16.77,31.58,50.59,91,10,3.36,ZW,1595726176
newport,51.59,-3.0,61.0,92,0,15.77,GB,1595726177
belen,36.49,36.22,78.8,83,19,9.17,TR,1595726177
thai nguyen,21.59,105.84,86.0,74,75,6.93,VN,1595726177
khanpur,28.65,70.66,94.78,42,61,6.29,PK,1595726178
barabash,43.2,131.48,73.4,69,75,3.36,RU,1595726178
fairfield,41.27,-73.32,79.0,74,1,8.05,US,1595726178
pompeia,-22.11,-50.17,63.91,63,0,4.94,BR,1595726178
zvishavane,-20.33,30.07,46.99,81,0,2.95,ZW,1595726179
roebourne,-20.78,117.13,69.49,29,100,21.56,AU,1595726179
lac du bonnet,50.25,-96.06,82.99,99,0,3.8,CA,1595726180
monte alegre,-2.01,-54.07,78.91,68,70,4.16,BR,1595726180
kamaishi,39.27,141.88,75.2,88,75,9.17,JP,1595726181
bozoum,6.32,16.38,68.11,96,100,4.34,CF,1595726182
buchanan,5.88,-10.05,77.0,94,75,8.37,LR,1595726182
labuhan,-6.88,112.21,75.54,76,100,9.22,ID,1595726182
bulawayo,-20.15,28.58,45.72,79,0,9.71,ZW,1595726182
ternate,0.8,127.4,78.67,80,100,4.54,ID,1595726183
kumbhraj,24.37,77.05,79.77,79,3,5.7,IN,1595726183
souillac,-20.52,57.52,69.8,56,75,11.41,MU,1595726183
pirassununga,-22.0,-47.43,65.05,50,0,1.72,BR,1595726183
vila velha,-20.33,-40.29,68.0,94,40,2.24,BR,1595726184
baruun-urt,46.68,113.28,65.53,83,100,7.83,MN,1595726184
shu,43.6,73.76,75.0,68,0,3.22,KZ,1595726184
moyale,3.52,39.06,62.98,80,1,14.05,KE,1595726185
pindiga,9.98,10.93,72.25,92,100,7.27,NG,1595726185
waraseoni,21.75,80.03,77.97,76,0,1.59,IN,1595726185
